~VERSION INFORMATION
 VERS.                          2.0 :   CWLS LOG ASCII STANDARD -VERSION 2.0
 WRAP.                          NO  :   ONE LINE PER DEPTH STEP

~WELL INFORMATION
 STRT    .FT        5000.0000 : START DEPTH
 STOP    .FT        5020.0000 : STOP DEPTH
 STEP    .FT           0.5000 : STEP
 NULL    .             -999.25 : NULL VALUE
 COMP    .   PERMIAN BASIN OPS : COMPANY
 WELL    .   WOLFCAMP A-1H     : WELL NAME
 UWI     .   42-301-34567-0000 : UNIQUE WELL IDENTIFIER
 FLD     .   SPRABERRY TREND   : FIELD
 LOC     .   SEC 12 T2S R37E   : LOCATION
 CNTY    .   MIDLAND            : COUNTY
 STAT    .   TEXAS              : STATE
 CTRY    .   US                 : COUNTRY
 SRVC    .   HALLIBURTON        : SERVICE COMPANY
 DATE    .   2024-03-15         : LOG DATE
 API     .   42301345670000     : API NUMBER
 LATI    .   31.9542            : LATITUDE
 LONG    .   -102.0734          : LONGITUDE
 GDAT    .   GR                 : GROUND DATUM
 EREF    .FT        2875.0     : ELEVATION OF DEPTH REFERENCE
 EKEL    .FT        2862.0     : KELLY BUSHING ELEVATION
 TD      .FT        8500.0     : TOTAL DEPTH

~CURVE INFORMATION
 DEPT    .FT                    : 1  DEPTH
 GR      .GAPI                  : 2  GAMMA RAY
 RHOB    .G/CC                  : 3  BULK DENSITY
 NPHI    .V/V                   : 4  NEUTRON POROSITY
 ILD     .OHMM                  : 5  DEEP INDUCTION RESISTIVITY
 SP      .MV                    : 6  SPONTANEOUS POTENTIAL

~PARAMETER INFORMATION
 BHT     .DEGF      185.0      : BOTTOM HOLE TEMPERATURE
 BS      .IN          8.75     : BIT SIZE
 RMF     .OHMM        0.85     : MUD FILTRATE RESISTIVITY
 DFD     .LB/GAL      9.2      : DRILLING FLUID DENSITY

~A  DEPTH       GR       RHOB     NPHI     ILD      SP
  5000.0000   85.234   2.5812   0.1823   12.453  -25.123
  5000.5000   82.109   2.5901   0.1798   13.102  -24.876
  5001.0000   88.456   2.5734   0.1856   11.234  -25.456
  5001.5000   91.234   2.5689   0.1901   10.567  -26.012
  5002.0000   95.678   2.5623   0.1945   9.234   -26.789
  5002.5000  102.345   2.5567   0.2012   7.890   -27.234
  5003.0000  108.901   2.5501   0.2089   6.543   -28.012
  5003.5000  112.456   2.5456   0.2134   5.890   -28.567
  5004.0000  115.234   2.5412   0.2178   5.234   -29.012
  5004.5000  118.678   2.5378   0.2223   4.678   -29.456
  5005.0000  105.234   2.5489   0.2045   8.123   -27.890
  5005.5000   92.345   2.5678   0.1912   11.234  -25.678
  5006.0000   78.901   2.5834   0.1756   15.678  -23.456
  5006.5000   65.234   2.5989   0.1623   22.345  -20.123
  5007.0000   52.345   2.6123   0.1478   35.678  -17.890
  5007.5000   45.678   2.6234   0.1389   48.901  -15.234
  5008.0000   38.901   2.6345   0.1298   65.234  -12.678
  5008.5000   35.234   2.6412   0.1234   78.901  -10.456
  5009.0000   32.456   2.6478   0.1178   92.345   -8.234
  5009.5000   30.123   2.6534   0.1123  105.678   -6.012
  5010.0000   28.456   2.6589   0.1078  118.901   -4.567
  5010.5000   34.567   2.6423   0.1245   82.345   -9.123
  5011.0000   42.345   2.6289   0.1345   55.678  -13.456
  5011.5000   55.678   2.6089   0.1512   30.123  -18.234
  5012.0000   72.345   2.5867   0.1689   18.456  -22.678
  5012.5000   88.901   2.5712   0.1845   12.345  -25.234
  5013.0000   98.234   2.5623   0.1934   9.678   -26.890
  5013.5000  110.567   2.5478   0.2098   6.234   -28.345
  5014.0000  120.234   2.5345   0.2234   4.567   -29.890
  5014.5000  125.678   2.5289   0.2312   3.890   -30.456
  5015.0000  118.901   2.5356   0.2198   5.123   -29.234
  5015.5000   98.234   2.5601   0.1945   9.456   -26.567
  5016.0000   72.345   2.5845   0.1678   19.234  -22.345
  5016.5000   48.901   2.6178   0.1423   42.567  -16.123
  5017.0000   35.234   2.6401   0.1234   72.345  -11.234
  5017.5000   28.901   2.6534   0.1098  102.678   -7.456
  5018.0000   25.234   2.6623   0.1012  135.234   -4.890
  5018.5000   23.456   2.6689   0.0956  158.901   -3.234
  5019.0000   22.123   2.6734   0.0912  175.234   -2.012
  5019.5000   24.567   2.6678   0.0978  148.901   -3.890
  5020.0000   30.234   2.6545   0.1112  112.345   -6.890
